[
  {
    "store_name": "명작가",
    "tel": "051-612-8927",
    "address": "부산광역시 남구 대연동 63-8",
    "latitude": "35.134935",
    "longitude": "129.099648",
    "category": "막국수|비빔막국수",
    "review_cnt": 23,
    "review_mean": 4.956521739130435
  },
  {
    "store_name": "고려국시",
    "tel": "02-571-1937",
    "address": "서울특별시 서초구 양재동 220-2 2층",
    "latitude": "37.462173",
    "longitude": "127.034041",
    "category": "국수|고려음식",
    "review_cnt": 22,
    "review_mean": 4.863636363636363
  },
  {
    "store_name": "더아리엘",
    "tel": "02-2655-0770",
    "address": "서울특별시 양천구 목동 961",
    "latitude": "37.524348",
    "longitude": "126.869918",
    "category": "뷔페",
    "review_cnt": 33,
    "review_mean": 4.818181818181818
  },
  {
    "store_name": "애성회관",
    "tel": "02-352-0303",
    "address": "서울특별시 중구 북창동 93-36",
    "latitude": "37.562415",
    "longitude": "126.978921",
    "category": "한우곰탕|곰탕",
    "review_cnt": 22,
    "review_mean": 4.681818181818182
  },
  {
    "store_name": "고집돌우럭",
    "tel": "064-722-1008",
    "address": "제주특별자치도 제주시 건입동 1319-124",
    "latitude": "33.516306",
    "longitude": "126.528063",
    "category": "우럭조림|갈치조림",
    "review_cnt": 24,
    "review_mean": 4.625
  },
  {
    "store_name": "농민백암순대",
    "tel": "02-555-9603",
    "address": "서울시 강남구 대치동 896-33 (알앤지타운 1F)",
    "latitude": "37.503714",
    "longitude": "127.053005",
    "category": "순댓국|순대",
    "review_cnt": 31,
    "review_mean": 4.612903225806452
  },
  {
    "store_name": "다운타우너",
    "tel": "070-8820-3696",
    "address": "서울특별시 용산구 한남동 683-63",
    "latitude": "37.535888",
    "longitude": "127.000407",
    "category": "아보카도버거|수제버거",
    "review_cnt": 41,
    "review_mean": 4.609756097560975
  },
  {
    "store_name": "고집돌우럭",
    "tel": "064-738-1540",
    "address": "제주특별자치도 서귀포시 색달동 2351",
    "latitude": "33.257928",
    "longitude": "126.416825",
    "category": "우럭조림|우럭",
    "review_cnt": 25,
    "review_mean": 4.6
  },
  {
    "store_name": "장블랑제리",
    "tel": "02-889-5170",
    "address": "서울시 관악구 낙성대동 1660-7",
    "latitude": "37.477147",
    "longitude": "126.961946",
    "category": "단팥빵|빵집",
    "review_cnt": 27,
    "review_mean": 4.555555555555555
  },
  {
    "store_name": "땅코참숯구이",
    "tel": "02-2281-6908",
    "address": "서울특별시 성동구 행당동 298-53",
    "latitude": "37.560249",
    "longitude": "127.032951",
    "category": "목살|갈매기살",
    "review_cnt": 24,
    "review_mean": 4.541666666666667
  },
  {
    "store_name": "다운타우너",
    "tel": "070-8833-3696",
    "address": "서울특별시 강남구 신사동 666-25",
    "latitude": "37.524059",
    "longitude": "127.038540",
    "category": "아보카도버거|수제버거",
    "review_cnt": 28,
    "review_mean": 4.5
  },
  {
    "store_name": "올드문래",
    "tel": "02-6326-4336",
    "address": "서울특별시 영등포구 문래동2가 14-28",
    "latitude": "37.513940",
    "longitude": "126.894277",
    "category": "수제맥주|카페",
    "review_cnt": 20,
    "review_mean": 4.5
  },
  {
    "store_name": "계림",
    "tel": "02-2263-6658",
    "address": "서울특별시 종로구 종로3가 167",
    "latitude": "37.570158",
    "longitude": "126.994503",
    "category": "마늘닭|닭도리탕",
    "review_cnt": 29,
    "review_mean": 4.482758620689655
  },
  {
    "store_name": "영광정 메밀국수",
    "tel": "033-673-5254",
    "address": "강원도 양양군 강현면 사교리 240-2",
    "latitude": "38.122431",
    "longitude": "128.576149",
    "category": "메밀국수|편육",
    "review_cnt": 27,
    "review_mean": 4.481481481481482
  },
  {
    "store_name": "만푸쿠",
    "tel": "02-424-4702",
    "address": "서울특별시 송파구 송파동 52-1",
    "latitude": "37.510471",
    "longitude": "127.110287",
    "category": "연어덮밥|일본가정식",
    "review_cnt": 27,
    "review_mean": 4.481481481481482
  },
  {
    "store_name": "나주곰탕 하얀집",
    "tel": "061-333-4292",
    "address": "전라남도 나주시 중앙동 48-17",
    "latitude": "35.032256",
    "longitude": "126.717027",
    "category": "곰탕|수육",
    "review_cnt": 27,
    "review_mean": 4.444444444444445
  },
  {
    "store_name": "보니스피자펍",
    "tel": "02-792-0303",
    "address": "서울특별시 용산구 용산동2가 44-19",
    "latitude": "37.541172",
    "longitude": "126.986900",
    "category": "피자펍|피자",
    "review_cnt": 25,
    "review_mean": 4.44
  },
  {
    "store_name": "정돈",
    "tel": "02-987-0924",
    "address": "서울특별시 종로구 명륜4가 107 지하1층",
    "latitude": "37.581813",
    "longitude": "127.001091",
    "category": "안심돈까스|돈까스",
    "review_cnt": 65,
    "review_mean": 4.430769230769231
  },
  {
    "store_name": "지구당",
    "tel": "02-883-9929",
    "address": "서울특별시 관악구 봉천동 1598-23",
    "latitude": "37.478268",
    "longitude": "126.952765",
    "category": "규동|소고기덮밥",
    "review_cnt": 26,
    "review_mean": 4.423076923076923
  },
  {
    "store_name": "은주정",
    "tel": "02-2265-4669",
    "address": "서울특별시 중구 주교동 43-23",
    "latitude": "37.568684",
    "longitude": "126.999751",
    "category": "김치찌개|김치찌개전문",
    "review_cnt": 27,
    "review_mean": 4.407407407407407
  },
  {
    "store_name": "백촌막국수",
    "tel": "033-632-5422",
    "address": "강원도 고성군 토성면 백촌리 162",
    "latitude": "38.293055",
    "longitude": "128.541786",
    "category": "막국수|편육",
    "review_cnt": 21,
    "review_mean": 4.380952380952381
  },
  {
    "store_name": "봉순이네 흑돼지",
    "tel": "064-792-2030",
    "address": "제주특별자치도 서귀포시 대정읍 보성리 463-10",
    "latitude": "33.271841",
    "longitude": "126.278548",
    "category": "흑돼지|생갈비",
    "review_cnt": 29,
    "review_mean": 4.379310344827586
  },
  {
    "store_name": "깡통만두",
    "tel": "02-794-4243",
    "address": "서울특별시 종로구 재동 84-22",
    "latitude": "37.578165",
    "longitude": "126.986085",
    "category": "만두전골|만두",
    "review_cnt": 29,
    "review_mean": 4.379310344827586
  },
  {
    "store_name": "서두산 딤섬",
    "tel": "02-425-4588",
    "address": "서울특별시 송파구 방이동 104",
    "latitude": "37.512362",
    "longitude": "127.111751",
    "category": "딤섬|훈툰",
    "review_cnt": 24,
    "review_mean": 4.375
  },
  {
    "store_name": "미분당",
    "tel": "02-3141-0807",
    "address": "서울특별시 서대문구 창천동 72-23",
    "latitude": "37.556812",
    "longitude": "126.933548",
    "category": "쌀국수|양지쌀국수",
    "review_cnt": 49,
    "review_mean": 4.36734693877551
  },
  {
    "store_name": "동원집",
    "tel": "02-2265-1339",
    "address": "서울특별시 중구 을지로3가 96-2",
    "latitude": "37.567345",
    "longitude": "126.991140",
    "category": "감자국|머리고기",
    "review_cnt": 30,
    "review_mean": 4.366666666666666
  },
  {
    "store_name": "순두부젤라또",
    "tel": "010-2124-1356",
    "address": "강원도 강릉시 초당동 354-4",
    "latitude": "37.791619",
    "longitude": "128.915551",
    "category": "순두부젤라또",
    "review_cnt": 22,
    "review_mean": 4.363636363636363
  },
  {
    "store_name": "뽕나무쟁이 족발",
    "tel": "02-558-9279",
    "address": "서울특별시 강남구 대치동 896-5",
    "latitude": "37.503227",
    "longitude": "127.052010",
    "category": "양념족발|족발",
    "review_cnt": 26,
    "review_mean": 4.346153846153846
  },
  {
    "store_name": "소이연남",
    "tel": "02-323-5130",
    "address": "서울특별시 마포구 연남동 229-67 1층",
    "latitude": "37.563514",
    "longitude": "126.925393",
    "category": "소고기국수|쌀국수",
    "review_cnt": 53,
    "review_mean": 4.30188679245283
  },
  {
    "store_name": "을밀대",
    "tel": "02-717-1922",
    "address": "서울특별시 마포구 염리동 147-6",
    "latitude": "37.547487",
    "longitude": "126.945529",
    "category": "평양냉면|녹두전",
    "review_cnt": 49,
    "review_mean": 4.285714285714286
  },
  {
    "store_name": "봉브레드",
    "tel": "033-633-4826",
    "address": "강원도 속초시 교동 799-173",
    "latitude": "38.202944",
    "longitude": "128.568468",
    "category": "마늘빵|빵집",
    "review_cnt": 30,
    "review_mean": 4.266666666666667
  },
  {
    "store_name": "신복관",
    "tel": "032-833-1948",
    "address": "인천광역시 연수구 송도동 3-27 은진프라자105호",
    "latitude": "37.391854",
    "longitude": "126.650306",
    "category": "직화요리|쭈꾸미",
    "review_cnt": 20,
    "review_mean": 4.25
  },
  {
    "store_name": "에베레스트",
    "tel": "02-766-8850",
    "address": "서울특별시 종로구 창신동 148-1",
    "latitude": "37.572594",
    "longitude": "127.012506",
    "category": "네팔|레스토랑",
    "review_cnt": 24,
    "review_mean": 4.25
  },
  {
    "store_name": "사모님돈가스",
    "tel": "02-337-2207",
    "address": "서울특별시 마포구 상수동 310-8",
    "latitude": "37.548083",
    "longitude": "126.922280",
    "category": "돈가스|매운돈까스",
    "review_cnt": 32,
    "review_mean": 4.25
  },
  {
    "store_name": "고기리 막국수",
    "tel": "031-263-1107",
    "address": "경기도 용인시 수지구 고기동 439-1",
    "latitude": "37.359169",
    "longitude": "127.044289",
    "category": "순메밀|막국수",
    "review_cnt": 49,
    "review_mean": 4.244897959183674
  },
  {
    "store_name": "고옥",
    "tel": "051-622-1638",
    "address": "부산광역시 수영구 남천동 12-8",
    "latitude": "35.143616",
    "longitude": "129.109688",
    "category": "장어덮밥|히츠마부시",
    "review_cnt": 21,
    "review_mean": 4.238095238095238
  },
  {
    "store_name": "벌집칼국수",
    "tel": "033-648-0866",
    "address": "강원도 강릉시 임당동 60-2",
    "latitude": "37.754511",
    "longitude": "128.892813",
    "category": "장칼국수|손칼국수",
    "review_cnt": 27,
    "review_mean": 4.222222222222222
  },
  {
    "store_name": "중앙해장",
    "tel": "02-558-7905",
    "address": "서울특별시 강남구 대치동 996-16",
    "latitude": "37.508313",
    "longitude": "127.065468",
    "category": "곱창전골|내장탕",
    "review_cnt": 33,
    "review_mean": 4.212121212121212
  },
  {
    "store_name": "원조할매국밥",
    "tel": "051-731-2866",
    "address": "부산광역시 해운대구 우1동 612-2",
    "latitude": "35.163154",
    "longitude": "129.161140",
    "category": "소고기국밥|선지국밥",
    "review_cnt": 29,
    "review_mean": 4.206896551724138
  },
  {
    "store_name": "조씨네 고기국수",
    "tel": "02-499-9501",
    "address": "서울시 광진구 화양동 12-52",
    "latitude": "37.544257",
    "longitude": "127.070202",
    "category": "고기국수",
    "review_cnt": 25,
    "review_mean": 4.2
  },
  {
    "store_name": "군포식당",
    "tel": "031-452-0025",
    "address": "경기도 군포시 당동 748-22",
    "latitude": "37.355522",
    "longitude": "126.947268",
    "category": "설렁탕|한우",
    "review_cnt": 20,
    "review_mean": 4.2
  },
  {
    "store_name": "신발원",
    "tel": "051-467-0177",
    "address": "부산광역시 동구 초량1동 561-1",
    "latitude": "35.114808",
    "longitude": "129.038706",
    "category": "고기만두|만두",
    "review_cnt": 20,
    "review_mean": 4.2
  },
  {
    "store_name": "우동가조쿠",
    "tel": "02-762-2177",
    "address": "서울특별시 성동구 행당동 32-22",
    "latitude": "37.556786",
    "longitude": "127.042914",
    "category": "사누키우동|우동",
    "review_cnt": 25,
    "review_mean": 4.2
  },
  {
    "store_name": "로타리식당",
    "tel": "061-642-2156",
    "address": "전라남도 여수시 서교동 459",
    "latitude": "34.741496",
    "longitude": "127.727533",
    "category": "게장백반|백반",
    "review_cnt": 21,
    "review_mean": 4.190476190476191
  },
  {
    "store_name": "명진전복",
    "tel": "064-782-9944",
    "address": "제주특별자치도 제주시 구좌읍 평대리 515-28",
    "latitude": "33.532406",
    "longitude": "126.849892",
    "category": "전복돌솥밥|전복구이",
    "review_cnt": 61,
    "review_mean": 4.180327868852459
  },
  {
    "store_name": "반갱",
    "tel": "042-486-0950",
    "address": "대전광역시 서구 둔산동 991",
    "latitude": "36.353295",
    "longitude": "127.377268",
    "category": "한식레스토랑|퓨전한식",
    "review_cnt": 29,
    "review_mean": 4.172413793103448
  },
  {
    "store_name": "영춘옥",
    "tel": "02-765-4237",
    "address": "서울특별시 종로구 돈의동 131",
    "latitude": "37.571320",
    "longitude": "126.991516",
    "category": "꼬리곰탕|곰탕",
    "review_cnt": 24,
    "review_mean": 4.166666666666667
  },
  {
    "store_name": "명동교자",
    "tel": "02-776-5348",
    "address": "서울특별시 중구 명동2가 25-2",
    "latitude": "37.562571",
    "longitude": "126.985757",
    "category": "칼국수|만두",
    "review_cnt": 101,
    "review_mean": 4.158415841584159
  },
  {
    "store_name": "목멱산방",
    "tel": "02-318-4790",
    "address": "서울특별시 중구 남산동2가 25-4",
    "latitude": "37.558102",
    "longitude": "126.986899",
    "category": "비빔밥|불고기비빔밥",
    "review_cnt": 20,
    "review_mean": 4.15
  },
  {
    "store_name": "라라브레드",
    "tel": "1800-1990",
    "address": "서울특별시 송파구 송파동 58-8",
    "latitude": "37.511156",
    "longitude": "127.109134",
    "category": "브런치카페|카페",
    "review_cnt": 27,
    "review_mean": 4.148148148148148
  },
  {
    "store_name": "애정 마라샹궈",
    "tel": "02-921-3721",
    "address": "서울특별시 성북구 동선동1가 2-6",
    "latitude": "37.592163",
    "longitude": "127.017247",
    "category": "마라샹궈|마라탕",
    "review_cnt": 21,
    "review_mean": 4.142857142857143
  },
  {
    "store_name": "브루클린더버거조인트",
    "tel": "02-545-0718",
    "address": "서울특별시 강남구 신사동 540-11",
    "latitude": "37.519094",
    "longitude": "127.024049",
    "category": "수제버거|버거",
    "review_cnt": 39,
    "review_mean": 4.128205128205129
  },
  {
    "store_name": "엄지네포장마차",
    "tel": "033-642-0178",
    "address": "강원도 강릉시 포남동 1155",
    "latitude": "37.766296",
    "longitude": "128.907040",
    "category": "꼬막무침|꼬막비빔밥",
    "review_cnt": 40,
    "review_mean": 4.125
  },
  {
    "store_name": "우진해장국",
    "tel": "064-757-3393",
    "address": "제주특별자치도 제주시 삼도2동 831",
    "latitude": "33.511522",
    "longitude": "126.520038",
    "category": "고사리육개장|몸국",
    "review_cnt": 70,
    "review_mean": 4.1
  },
  {
    "store_name": "우래옥",
    "tel": "02-2265-0151",
    "address": "서울특별시 중구 주교동 118-1",
    "latitude": "37.568190",
    "longitude": "126.998737",
    "category": "평양냉면|불고기",
    "review_cnt": 63,
    "review_mean": 4.095238095238095
  },
  {
    "store_name": "성심당",
    "tel": "042-256-4114",
    "address": "대전시 중구 은행동 145",
    "latitude": "36.327761",
    "longitude": "127.427267",
    "category": "튀김소보로|부추빵",
    "review_cnt": 32,
    "review_mean": 4.09375
  },
  {
    "store_name": "악어떡볶이",
    "tel": "02-2281-9988",
    "address": "서울특별시 성동구 행당동 3-27",
    "latitude": "37.560722",
    "longitude": "127.041011",
    "category": "떡볶이|순대",
    "review_cnt": 22,
    "review_mean": 4.090909090909091
  },
  {
    "store_name": "도마29",
    "tel": "053-216-1129",
    "address": "대구광역시 중구 봉산동 35-62 도마29",
    "latitude": "35.865773",
    "longitude": "128.595708",
    "category": "연어초밥|광어초밥",
    "review_cnt": 23,
    "review_mean": 4.086956521739131
  },
  {
    "store_name": "스시로로",
    "tel": "02-585-1015",
    "address": "서울특별시 동작구 사당동 1006-5",
    "latitude": "37.484085",
    "longitude": "126.980100",
    "category": "스시|알탕",
    "review_cnt": 36,
    "review_mean": 4.083333333333333
  },
  {
    "store_name": "라멘트럭",
    "tel": "02-336-8455",
    "address": "서울특별시 마포구 상수동 328-7",
    "latitude": "37.547182",
    "longitude": "126.922670",
    "category": "라멘|차슈",
    "review_cnt": 36,
    "review_mean": 4.083333333333333
  },
  {
    "store_name": "부자피자",
    "tel": "02-794-9474",
    "address": "서울특별시 용산구 한남동 743-33",
    "latitude": "37.537272",
    "longitude": "126.999810",
    "category": "화덕피자|피자",
    "review_cnt": 24,
    "review_mean": 4.083333333333333
  },
  {
    "store_name": "육회자매집",
    "tel": "02-2272-3069",
    "address": "서울특별시 종로구 종로4가 177",
    "latitude": "37.570569",
    "longitude": "126.999887",
    "category": "육회덮밥|육회",
    "review_cnt": 58,
    "review_mean": 4.068965517241379
  },
  {
    "store_name": "동화가든",
    "tel": "033-652-9885",
    "address": "강원도 강릉시 초당동 309-1",
    "latitude": "37.791107",
    "longitude": "128.914911",
    "category": "짬뽕순두부|초두부",
    "review_cnt": 59,
    "review_mean": 4.067796610169491
  },
  {
    "store_name": "별미곱창",
    "tel": "02-413-3610",
    "address": "서울특별시 송파구 방이동 63-1",
    "latitude": "37.514069",
    "longitude": "127.108673",
    "category": "소곱창|곱창",
    "review_cnt": 30,
    "review_mean": 4.066666666666666
  },
  {
    "store_name": "이성당",
    "tel": "063-445-2772",
    "address": "전라북도 군산시 중앙로1가 12-2",
    "latitude": "35.987105",
    "longitude": "126.711142",
    "category": "야채빵|빵집",
    "review_cnt": 37,
    "review_mean": 4.054054054054054
  },
  {
    "store_name": "잇텐고",
    "tel": "02-337-7715",
    "address": "서울특별시 마포구 합정동 396-14",
    "latitude": "37.549231",
    "longitude": "126.909224",
    "category": "바질라멘|라멘",
    "review_cnt": 20,
    "review_mean": 4.05
  },
  {
    "store_name": "일산칼국수",
    "tel": "031-903-2208",
    "address": "경기도 고양시 일산동구 정발산동 1271-3",
    "latitude": "37.670521",
    "longitude": "126.786063",
    "category": "닭칼국수|냉콩국수",
    "review_cnt": 42,
    "review_mean": 4.0476190476190474
  },
  {
    "store_name": "이태리국시",
    "tel": "042-485-0950",
    "address": "대전광역시 서구 둔산동 1008",
    "latitude": "36.353416",
    "longitude": "127.377804",
    "category": "이태리|퓨전레스토랑",
    "review_cnt": 44,
    "review_mean": 4.045454545454546
  },
  {
    "store_name": "란주라미엔",
    "tel": "02-779-4800",
    "address": "서울특별시 중구 충무로1가 25-14",
    "latitude": "37.560930",
    "longitude": "126.982185",
    "category": "도삭면|꿔바로우",
    "review_cnt": 23,
    "review_mean": 4.043478260869565
  },
  {
    "store_name": "올래국수",
    "tel": "064-742-7355",
    "address": "제주특별자치도 제주시 연동 301-19",
    "latitude": "33.491521",
    "longitude": "126.497259",
    "category": "고기국수|국수",
    "review_cnt": 48,
    "review_mean": 4.041666666666667
  },
  {
    "store_name": "원조숯불닭불고기",
    "tel": "033-257-5326",
    "address": "강원도 춘천시 중앙로2가 70",
    "latitude": "37.878733",
    "longitude": "127.725390",
    "category": "숯불닭갈비",
    "review_cnt": 26,
    "review_mean": 4.038461538461538
  },
  {
    "store_name": "우동 카덴",
    "tel": "02-6463-6362",
    "address": "서울특별시 마포구 서교동 391-5",
    "latitude": "37.551693",
    "longitude": "126.915052",
    "category": "우동|냉우동",
    "review_cnt": 32,
    "review_mean": 4.03125
  },
  {
    "store_name": "신승반점",
    "tel": "032-762-9467",
    "address": "인천광역시 중구 북성동2가 11-32",
    "latitude": "37.475472",
    "longitude": "126.617810",
    "category": "유니짜장|짜장면",
    "review_cnt": 22,
    "review_mean": 4.0
  },
  {
    "store_name": "만족오향족발",
    "tel": "02-753-4755",
    "address": "서울특별시 중구 태평로2가 318-1",
    "latitude": "37.563258",
    "longitude": "126.976018",
    "category": "족발|떡만두국",
    "review_cnt": 35,
    "review_mean": 4.0
  },
  {
    "store_name": "대포찜닭",
    "tel": "02-742-6669",
    "address": "서울특별시 종로구 동숭동 1-83 3층",
    "latitude": "37.582466",
    "longitude": "127.004017",
    "category": "찜닭|오징어튀김",
    "review_cnt": 22,
    "review_mean": 4.0
  },
  {
    "store_name": "구복만두",
    "tel": "02-797-8656",
    "address": "서울특별시 용산구 남영동 3-4",
    "latitude": "37.545093",
    "longitude": "126.973227",
    "category": "샤오롱바오|만두",
    "review_cnt": 26,
    "review_mean": 4.0
  },
  {
    "store_name": "을지면옥",
    "tel": "02-2266-7052",
    "address": "서울특별시 중구 입정동 161",
    "latitude": "37.567552",
    "longitude": "126.992819",
    "category": "평양냉면|편육",
    "review_cnt": 55,
    "review_mean": 3.981818181818182
  },
  {
    "store_name": "윤씨밀방",
    "tel": "02-3143-4116",
    "address": "서울특별시 마포구 서교동 411-6",
    "latitude": "37.549658",
    "longitude": "126.922387",
    "category": "함박스테이크|투움바",
    "review_cnt": 55,
    "review_mean": 3.981818181818182
  },
  {
    "store_name": "바토스",
    "tel": "02-797-8226",
    "address": "서울특별시 용산구 이태원동 181-8 2층",
    "latitude": "37.534593",
    "longitude": "126.990170",
    "category": "멕시코|타코",
    "review_cnt": 40,
    "review_mean": 3.975
  },
  {
    "store_name": "우마이도",
    "tel": "02-467-8788",
    "address": "서울특별시 광진구 화양동 3-29",
    "latitude": "37.543034",
    "longitude": "127.071695",
    "category": "돈코츠라멘|라멘",
    "review_cnt": 37,
    "review_mean": 3.972972972972973
  },
  {
    "store_name": "쟈니덤플링",
    "tel": "011-806-1941",
    "address": "서울특별시 용산구 이태원동 130-3",
    "latitude": "37.533869",
    "longitude": "126.993718",
    "category": "중국식만두|만두",
    "review_cnt": 25,
    "review_mean": 3.96
  },
  {
    "store_name": "가보정",
    "tel": "1600-3883",
    "address": "경기도 수원시 팔달구 인계동 958-1",
    "latitude": "37.274195",
    "longitude": "127.028706",
    "category": "왕갈비|갈비",
    "review_cnt": 22,
    "review_mean": 3.9545454545454546
  },
  {
    "store_name": "유진식당",
    "tel": "02-764-2835",
    "address": "서울특별시 종로구 낙원동 221",
    "latitude": "37.572032",
    "longitude": "126.988304",
    "category": "평양냉면|녹두지짐",
    "review_cnt": 21,
    "review_mean": 3.9523809523809526
  },
  {
    "store_name": "더티트렁크",
    "tel": "010-4621-9527",
    "address": "경기 파주시 문발동 75-6",
    "latitude": "37.728443",
    "longitude": "126.702920",
    "category": "",
    "review_cnt": 20,
    "review_mean": 3.95
  },
  {
    "store_name": "오는정김밥",
    "tel": "064-762-8927",
    "address": "제주특별자치도 서귀포시 서귀동 256-26",
    "latitude": "33.249318",
    "longitude": "126.566515",
    "category": "깻잎김밥|김밥",
    "review_cnt": 34,
    "review_mean": 3.9411764705882355
  },
  {
    "store_name": "봉피양",
    "tel": "02-415-5527",
    "address": " 서울특별시 송파구 방이동 205-8",
    "latitude": "37.510001",
    "longitude": "127.126175",
    "category": "평양냉면|순면",
    "review_cnt": 29,
    "review_mean": 3.9310344827586206
  },
  {
    "store_name": "윤휘식당",
    "tel": "02-922-0851",
    "address": "서울특별시 성북구 동선동2가 135-21",
    "latitude": "37.591041",
    "longitude": "127.019208",
    "category": "일본가정식|차슈",
    "review_cnt": 29,
    "review_mean": 3.9310344827586206
  },
  {
    "store_name": "자매국수",
    "tel": "064-727-1112",
    "address": "제주특별자치도 제주시 일도2동 1034-10",
    "latitude": "33.508158",
    "longitude": "126.532382",
    "category": "고기국수|돔베고기",
    "review_cnt": 40,
    "review_mean": 3.925
  },
  {
    "store_name": "미즈컨테이너",
    "tel": "02-536-5786",
    "address": "서울특별시 서초구 서초동 1316-29 타임빌딩 1층",
    "latitude": "37.498310",
    "longitude": "127.025232",
    "category": "떠먹는피자|샐러드파스타",
    "review_cnt": 48,
    "review_mean": 3.9166666666666665
  },
  {
    "store_name": "영일분식",
    "tel": "02-2636-9817",
    "address": "서울특별시 영등포구 문래동4가 8-26",
    "latitude": "37.516313",
    "longitude": "126.889677",
    "category": "비빔칼국수|칼국수",
    "review_cnt": 23,
    "review_mean": 3.9130434782608696
  },
  {
    "store_name": "삼해집",
    "tel": "02-2273-0266",
    "address": "서울특별시 종로구 관수동 42",
    "latitude": "37.569887",
    "longitude": "126.990990",
    "category": "굴보쌈|감자탕",
    "review_cnt": 21,
    "review_mean": 3.9047619047619047
  },
  {
    "store_name": "백년옥",
    "tel": "02-523-2860",
    "address": "서울특별시 서초구 서초3동 1450-6",
    "latitude": "37.481174",
    "longitude": "127.013766",
    "category": "두부|순두부",
    "review_cnt": 30,
    "review_mean": 3.9
  },
  {
    "store_name": "감성타코",
    "tel": "02-337-8883",
    "address": "서울특별시 마포구 서교동 358-121",
    "latitude": "37.552852",
    "longitude": "126.922723",
    "category": "파히타|타코",
    "review_cnt": 20,
    "review_mean": 3.9
  },
  {
    "store_name": "멘야하나비",
    "tel": "070-8959-1108",
    "address": "서울시 송파구 송파동 57",
    "latitude": "37.510964",
    "longitude": "127.107790",
    "category": "마제소바|라멘",
    "review_cnt": 37,
    "review_mean": 3.891891891891892
  },
  {
    "store_name": "신포닭강정",
    "tel": "032-762-5800",
    "address": "인천광역시 중구 신포동 1-12",
    "latitude": "37.471602",
    "longitude": "126.628181",
    "category": "닭강정",
    "review_cnt": 24,
    "review_mean": 3.875
  },
  {
    "store_name": "어니언",
    "tel": "070-7816-2710",
    "address": "서울특별시 성동구 성수동2가 277-135",
    "latitude": "37.544717",
    "longitude": "127.058299",
    "category": "베이커리카페|카페",
    "review_cnt": 32,
    "review_mean": 3.875
  },
  {
    "store_name": "조점례 남문피순대",
    "tel": "063-232-5006",
    "address": "전라북도 전주시 완산구 전동3가 2-198",
    "latitude": "35.812517",
    "longitude": "127.146963",
    "category": "피순대|순대국밥",
    "review_cnt": 47,
    "review_mean": 3.872340425531915
  },
  {
    "store_name": "감칠",
    "tel": "02-333-6994",
    "address": "서울특별시 마포구 연남동 385-6",
    "latitude": "37.562318",
    "longitude": "126.926050",
    "category": "파스타",
    "review_cnt": 23,
    "review_mean": 3.869565217391304
  },
  {
    "store_name": "레이어드",
    "tel": null,
    "address": "서울특별시 종로구 재동 84-14",
    "latitude": "37.577763",
    "longitude": "126.985925",
    "category": "스콘|카페",
    "review_cnt": 23,
    "review_mean": 3.869565217391304
  },
  {
    "store_name": "네거리식당",
    "tel": "064-762-5513",
    "address": "제주도 서귀포시 천지동 310-40",
    "latitude": "33.248522",
    "longitude": "126.559591",
    "category": "갈치국|갈치조림",
    "review_cnt": 23,
    "review_mean": 3.869565217391304
  },
  {
    "store_name": "어글리스토브",
    "tel": "02-558-8459",
    "address": "서울특별시 강남구 역삼동 817-36",
    "latitude": "37.500774",
    "longitude": "127.028255",
    "category": "브런치|파스타",
    "review_cnt": 37,
    "review_mean": 3.864864864864865
  },
  {
    "store_name": "88생선구이",
    "tel": "033-633-8892",
    "address": "강원도 속초시 중앙동 468-55",
    "latitude": "38.203749",
    "longitude": "128.591939",
    "category": "생선구이|도루묵",
    "review_cnt": 22,
    "review_mean": 3.8636363636363638
  },
  {
    "store_name": "경성양육관",
    "tel": "02-461-6880",
    "address": "서울특별시 광진구 자양동 11-12",
    "latitude": "37.539120",
    "longitude": "127.065644",
    "category": "양꼬치|꿔바로우",
    "review_cnt": 21,
    "review_mean": 3.857142857142857
  },
  {
    "store_name": "라이너스바베큐",
    "tel": "02-790-2920",
    "address": "서울특별시 용산구 이태원동 56-20",
    "latitude": "37.533797",
    "longitude": "126.989677",
    "category": "미국식바|바베큐",
    "review_cnt": 49,
    "review_mean": 3.857142857142857
  },
  {
    "store_name": "데블스도어",
    "tel": "02-6282-4466",
    "address": "서울특별시 서초구 반포동 118-6",
    "latitude": "37.504050",
    "longitude": "127.006994",
    "category": "수제맥주|페일에일",
    "review_cnt": 20,
    "review_mean": 3.85
  },
  {
    "store_name": "능라도",
    "tel": "031-781-3989",
    "address": "경기도 성남시 분당구 운중동 883-3",
    "latitude": "37.391733",
    "longitude": "127.065186",
    "category": "평양냉면|접시만두",
    "review_cnt": 26,
    "review_mean": 3.8461538461538463
  },
  {
    "store_name": "만다복",
    "tel": "032-773-3838",
    "address": "인천광역시 중구 북성동2가 9-11",
    "latitude": "37.476103",
    "longitude": "126.619245",
    "category": "하얀짜장|짜장",
    "review_cnt": 31,
    "review_mean": 3.838709677419355
  },
  {
    "store_name": "에그썸",
    "tel": "02-6082-2442",
    "address": "서울특별시 관악구 봉천동 1626-5",
    "latitude": "37.477801",
    "longitude": "126.957794",
    "category": "오믈렛|오므라이스",
    "review_cnt": 24,
    "review_mean": 3.8333333333333335
  },
  {
    "store_name": "새벽집",
    "tel": "02-546-5739",
    "address": "서울특별시 강남구 청담동 129-10",
    "latitude": "37.525518",
    "longitude": "127.052908",
    "category": "육회비빔밥|선지해장국",
    "review_cnt": 35,
    "review_mean": 3.8285714285714287
  },
  {
    "store_name": "에머이",
    "tel": "02-733-0588",
    "address": "서울특별시 종로구 관철동 16-9",
    "latitude": "37.569843",
    "longitude": "126.984619",
    "category": "분짜|쌀국수",
    "review_cnt": 22,
    "review_mean": 3.8181818181818183
  },
  {
    "store_name": "산수갑산",
    "tel": "02-2275-6654",
    "address": "서울특별시 중구 인현동1가 15-4",
    "latitude": "37.565419",
    "longitude": "126.995319",
    "category": "대창순대|순대",
    "review_cnt": 38,
    "review_mean": 3.8157894736842106
  },
  {
    "store_name": "라공방",
    "tel": "02-562-0825",
    "address": "서울특별시 강남구 역삼동 825-20",
    "latitude": "37.497732",
    "longitude": "127.029480",
    "category": "마라탕|마라샹궈",
    "review_cnt": 27,
    "review_mean": 3.814814814814815
  },
  {
    "store_name": "에머이",
    "tel": "02-568-0788",
    "address": "서울특별시 강남구 역삼동 826-26 2층",
    "latitude": "37.496553",
    "longitude": "127.029637",
    "category": "분짜|쌀국수",
    "review_cnt": 21,
    "review_mean": 3.8095238095238093
  },
  {
    "store_name": "땀땀",
    "tel": "02-554-8892",
    "address": "서울특별시 강남구 역삼동 817-31",
    "latitude": "37.500424",
    "longitude": "127.028023",
    "category": "곱창쌀국수|쌀국수",
    "review_cnt": 20,
    "review_mean": 3.8
  },
  {
    "store_name": "금수복국",
    "tel": "051-742-3600",
    "address": "부산시 해운대구 중동 1394-65",
    "latitude": "35.162390",
    "longitude": "129.164429",
    "category": "복국|밀복",
    "review_cnt": 20,
    "review_mean": 3.8
  },
  {
    "store_name": "돈사돈",
    "tel": "064-746-8989",
    "address": "제주특별자치도 제주시 노형동 3086-3",
    "latitude": "33.478918",
    "longitude": "126.463957",
    "category": "근고기|흑돼지",
    "review_cnt": 25,
    "review_mean": 3.8
  },
  {
    "store_name": "반룡산",
    "tel": "02-3446-8966",
    "address": "서울특별시 강남구 대치동 894-4 1층",
    "latitude": "37.504494",
    "longitude": "127.055793",
    "category": "가릿국밥|함흥냉면",
    "review_cnt": 33,
    "review_mean": 3.787878787878788
  },
  {
    "store_name": "미미면가",
    "tel": "070-4211-5466",
    "address": "서울시 강남구 신사동 512-21",
    "latitude": "37.517370",
    "longitude": "127.020164",
    "category": "소바|온소바",
    "review_cnt": 37,
    "review_mean": 3.7837837837837838
  },
  {
    "store_name": "삼청동수제비",
    "tel": "02-735-2965",
    "address": "서울특별시 종로구 삼청동 102",
    "latitude": "37.584655",
    "longitude": "126.981885",
    "category": "수제비|옹심이",
    "review_cnt": 26,
    "review_mean": 3.769230769230769
  },
  {
    "store_name": "이나니와 요스케",
    "tel": "02-772-9994",
    "address": "서울특별시 중구 을지로1가 192-11 재능빌딩 1층",
    "latitude": "37.565363",
    "longitude": "126.979214",
    "category": "이나니와우동|우동",
    "review_cnt": 20,
    "review_mean": 3.75
  },
  {
    "store_name": "본전돼지국밥",
    "tel": "051-441-2946",
    "address": "부산광역시 동구 초량3동  1200-6",
    "latitude": "35.116583",
    "longitude": "129.041382",
    "category": "돼지국밥|국밥",
    "review_cnt": 24,
    "review_mean": 3.75
  },
  {
    "store_name": "고성막국수",
    "tel": "02-2665-1205",
    "address": "서울특별시 강서구 방화동 323-6",
    "latitude": "37.577461",
    "longitude": "126.816107",
    "category": "순메밀|막국수",
    "review_cnt": 23,
    "review_mean": 3.739130434782609
  },
  {
    "store_name": "라디오베이",
    "tel": "031-8061-0773",
    "address": "경기도 성남시 분당구 삼평동 664",
    "latitude": "37.397498",
    "longitude": "127.110735",
    "category": "콥샐러드|펍",
    "review_cnt": 23,
    "review_mean": 3.739130434782609
  },
  {
    "store_name": "마녀주방",
    "tel": "070-4240-1116",
    "address": "서울특별시 강남구 역삼1동 818-14 크리스탈빌딩 지하1층",
    "latitude": "37.499484",
    "longitude": "127.028100",
    "category": "파스타|스테이크",
    "review_cnt": 26,
    "review_mean": 3.730769230769231
  },
  {
    "store_name": "자하손만두",
    "tel": "02-379-2648",
    "address": "서울특별시 종로구 부암동 245-2",
    "latitude": "37.593121",
    "longitude": "126.966044",
    "category": "손만두|만두",
    "review_cnt": 25,
    "review_mean": 3.72
  },
  {
    "store_name": "기와집순두부",
    "tel": "031-576-9009",
    "address": "경기도 남양주시 조안면 조안리 169-3",
    "latitude": "37.537284",
    "longitude": "127.302421",
    "category": "순두부|콩탕",
    "review_cnt": 21,
    "review_mean": 3.7142857142857144
  },
  {
    "store_name": "자매국수",
    "tel": "064-746-2222",
    "address": "제주특별자치도 제주시 노형동 1279-1",
    "latitude": "33.487794",
    "longitude": "126.478553",
    "category": "고기국수|돔베고기",
    "review_cnt": 45,
    "review_mean": 3.7111111111111112
  },
  {
    "store_name": "미진",
    "tel": "02-730-6198",
    "address": "서울특별시 종로구 종로1가 24",
    "latitude": "37.570459",
    "longitude": "126.979851",
    "category": "메밀국수|냉메밀",
    "review_cnt": 51,
    "review_mean": 3.6862745098039214
  },
  {
    "store_name": "순대실록",
    "tel": "02-742-5338",
    "address": "서울특별시 종로구 동숭동 1-41",
    "latitude": "37.583327",
    "longitude": "127.003070",
    "category": "순대스테이크|순대",
    "review_cnt": 35,
    "review_mean": 3.6857142857142855
  },
  {
    "store_name": "신다신",
    "tel": "033-633-3871",
    "address": "강원도 속초시 청호동 838",
    "latitude": "38.202840",
    "longitude": "128.593823",
    "category": "가리국밥|아바이순대",
    "review_cnt": 35,
    "review_mean": 3.6857142857142855
  },
  {
    "store_name": "부탄츄",
    "tel": "02-3144-3304",
    "address": "서울특별시 마포구 서교동 330-19",
    "latitude": "37.556419",
    "longitude": "126.926727",
    "category": "일본라멘|교자",
    "review_cnt": 22,
    "review_mean": 3.6818181818181817
  },
  {
    "store_name": "바비레드",
    "tel": "02-3452-1515",
    "address": "서울특별시 강남구 역삼동 618-18 지하 1층",
    "latitude": "37.502691",
    "longitude": "127.027934",
    "category": "파스타|스테이크",
    "review_cnt": 25,
    "review_mean": 3.68
  },
  {
    "store_name": "알베르",
    "tel": "02-566-6181",
    "address": "서울특별시 강남구 역삼동 618-11",
    "latitude": "37.503070",
    "longitude": "127.028079",
    "category": "티라미수|카페",
    "review_cnt": 31,
    "review_mean": 3.6774193548387095
  },
  {
    "store_name": "가시아방",
    "tel": "064-782-3300",
    "address": "제주특별자치도 서귀포시 성산읍 고성리 528-2",
    "latitude": "33.438616",
    "longitude": "126.918080",
    "category": "고기국수|아강발",
    "review_cnt": 33,
    "review_mean": 3.6666666666666665
  },
  {
    "store_name": "부탄츄",
    "tel": "02-3144-6604",
    "address": "서울특별시 서대문구 창천동 62-10",
    "latitude": "37.556679",
    "longitude": "126.935092",
    "category": "일본라멘|교자",
    "review_cnt": 21,
    "review_mean": 3.6666666666666665
  },
  {
    "store_name": "순희네 빈대떡",
    "tel": "02-2264-5057",
    "address": "서울특별시 종로구 종로5가 138-9 광장시장내",
    "latitude": "37.570623",
    "longitude": "127.000729",
    "category": "빈대떡|녹두빈대떡",
    "review_cnt": 30,
    "review_mean": 3.6666666666666665
  },
  {
    "store_name": "유타로",
    "tel": "031-708-5999",
    "address": "경기도 성남시 분당구 서현동 260-4",
    "latitude": "37.386595",
    "longitude": "127.122124",
    "category": "일본라멘|교자",
    "review_cnt": 24,
    "review_mean": 3.6666666666666665
  },
  {
    "store_name": "만선호프",
    "tel": "02-2274-1040",
    "address": "서울특별시 중구 을지로3가 95-1",
    "latitude": "37.567220",
    "longitude": "126.991776",
    "category": "노가리|호프",
    "review_cnt": 26,
    "review_mean": 3.6538461538461537
  },
  {
    "store_name": "정인면옥",
    "tel": "02-2683-2615",
    "address": "서울특별시 영등포구 여의도동 13-1 기독교침례회총회빌딩 1층",
    "latitude": "37.530683",
    "longitude": "126.921619",
    "category": "평양냉면|순면",
    "review_cnt": 34,
    "review_mean": 3.6470588235294117
  },
  {
    "store_name": "감나무집 기사식당",
    "tel": "02-325-8727",
    "address": "서울특별시 마포구 연남동 515-19",
    "latitude": "37.561875",
    "longitude": "126.921949",
    "category": "기사식당|돼지불백",
    "review_cnt": 25,
    "review_mean": 3.64
  },
  {
    "store_name": "델문도",
    "tel": "064-702-0007",
    "address": "제주특별자치도 제주시 조천읍 함덕리 1008-1",
    "latitude": "33.543778",
    "longitude": "126.668836",
    "category": "cafe|커피",
    "review_cnt": 20,
    "review_mean": 3.6
  },
  {
    "store_name": "경미네집",
    "tel": "064-782-2671",
    "address": "제주특별자치도 서귀포시 성산읍 성산리 145-4",
    "latitude": "33.461313",
    "longitude": "126.933368",
    "category": "문어라면|해물라면",
    "review_cnt": 20,
    "review_mean": 3.6
  },
  {
    "store_name": "돈부리모노",
    "tel": "02-392-8231",
    "address": "서울특별시 서대문구 창천동 5-95",
    "latitude": "37.557975",
    "longitude": "126.939043",
    "category": "유케동|돈부리",
    "review_cnt": 25,
    "review_mean": 3.6
  },
  {
    "store_name": "중앙떡볶이",
    "tel": "053-424-7692",
    "address": "대구시 중구 동성로2가 70",
    "latitude": "35.869512",
    "longitude": "128.596818",
    "category": "납작만두|떡볶이",
    "review_cnt": 20,
    "review_mean": 3.6
  },
  {
    "store_name": "이품분식",
    "tel": "02-333-3130",
    "address": "서울특별시 마포구 연남동 228-8",
    "latitude": "37.563161",
    "longitude": "126.925891",
    "category": "군만두|만두",
    "review_cnt": 22,
    "review_mean": 3.590909090909091
  },
  {
    "store_name": "쉑쉑버거",
    "tel": "080-731-2027",
    "address": "서울특별시 강남구 역삼동 809-13 1층",
    "latitude": "37.502858",
    "longitude": "127.025704",
    "category": "버거|수제버거",
    "review_cnt": 55,
    "review_mean": 3.581818181818182
  },
  {
    "store_name": "더블트러블",
    "tel": "02-3477-8880",
    "address": "서울특별시 강남구 역삼동 810-13 1층",
    "latitude": "37.503384",
    "longitude": "127.026383",
    "category": "미국식|샌드위치",
    "review_cnt": 26,
    "review_mean": 3.576923076923077
  },
  {
    "store_name": "로니로티",
    "tel": "02-498-7999",
    "address": "서울특별시 광진구 화양동 7-44",
    "latitude": "37.540960",
    "longitude": "127.068470",
    "category": "목살스테이크|파스타",
    "review_cnt": 26,
    "review_mean": 3.576923076923077
  },
  {
    "store_name": "무수옥",
    "tel": "02-954-6292",
    "address": "서울특별시 도봉구 도봉동 600-4",
    "latitude": "37.677036",
    "longitude": "127.044223",
    "category": "설렁탕|내장탕",
    "review_cnt": 21,
    "review_mean": 3.5714285714285716
  },
  {
    "store_name": "애플하우스",
    "tel": "02-595-1629",
    "address": "서울시 서초구 반포동 978",
    "latitude": "37.501775",
    "longitude": "126.990152",
    "category": "무침군만두|즉석떡볶이",
    "review_cnt": 39,
    "review_mean": 3.5641025641025643
  },
  {
    "store_name": "제주김만복",
    "tel": "064-796-8582",
    "address": "제주특별자치도 서귀포시 강정동 707-2",
    "latitude": "33.232474",
    "longitude": "126.506226",
    "category": "전복김밥|오징어무침",
    "review_cnt": 20,
    "review_mean": 3.55
  },
  {
    "store_name": "멘쯔",
    "tel": "02-730-1379",
    "address": "서울특별시 종로구 신문로2가 1-196",
    "latitude": "37.572194",
    "longitude": "126.969513",
    "category": "일본가정식|함바그",
    "review_cnt": 20,
    "review_mean": 3.55
  },
  {
    "store_name": "요멘야 고에몬",
    "tel": "02-534-8036",
    "address": "서울시 서초구 서초4동 1317-13 1층",
    "latitude": "37.498439",
    "longitude": "127.026291",
    "category": "일본식파스타|파스타",
    "review_cnt": 44,
    "review_mean": 3.5454545454545454
  },
  {
    "store_name": "소문난감자탕",
    "tel": "02-465-6580",
    "address": "서울특별시 성동구 성수2가3동 315-100",
    "latitude": "37.542885",
    "longitude": "127.054427",
    "category": "감자탕",
    "review_cnt": 35,
    "review_mean": 3.5428571428571427
  },
  {
    "store_name": "수우동",
    "tel": "064-796-5830",
    "address": "제주특별자치도 제주시 한림읍 협재리 1706-1",
    "latitude": "33.396612",
    "longitude": "126.242423",
    "category": "냉우동|돈까스",
    "review_cnt": 24,
    "review_mean": 3.5416666666666665
  },
  {
    "store_name": "브라더후드키친",
    "tel": "02-539-1230",
    "address": "서울특별시 강남구 역삼동 810-13",
    "latitude": "37.503384",
    "longitude": "127.026383",
    "category": "치킨와플|미국가정식",
    "review_cnt": 27,
    "review_mean": 3.5185185185185186
  },
  {
    "store_name": "대림창고",
    "tel": "02-499-9669",
    "address": "서울특별시 성동구 성수2가 322-32",
    "latitude": "37.541973",
    "longitude": "127.056404",
    "category": "갤러리카페|카페",
    "review_cnt": 29,
    "review_mean": 3.5172413793103448
  },
  {
    "store_name": "송죽장",
    "tel": "02-2631-9184",
    "address": "서울특별시 영등포구 영등포동4가 55",
    "latitude": "37.518352",
    "longitude": "126.905280",
    "category": "고추짬뽕|중국집",
    "review_cnt": 34,
    "review_mean": 3.5
  },
  {
    "store_name": "쉐이크쉑",
    "tel": null,
    "address": "서울특별시 중구 을지로6가 18-12",
    "latitude": "37.568894",
    "longitude": "127.008779",
    "category": "쉐이크|버거",
    "review_cnt": 22,
    "review_mean": 3.5
  },
  {
    "store_name": "봉포머구리집",
    "tel": "033-631-2021",
    "address": "강원도 속초시 영랑동 148-30",
    "latitude": "38.218768",
    "longitude": "128.593193",
    "category": "성게알밥|물회",
    "review_cnt": 64,
    "review_mean": 3.484375
  },
  {
    "store_name": "무월식탁",
    "tel": "02-552-9280",
    "address": "서울특별시 강남구 역삼동 812-15",
    "latitude": "37.502641",
    "longitude": "127.027310",
    "category": "간장새우덮밥|한식",
    "review_cnt": 27,
    "review_mean": 3.4814814814814814
  },
  {
    "store_name": "마복림 떡볶이",
    "tel": "02-2232-8930",
    "address": "서울특별시 중구 신당동 292-112",
    "latitude": "37.563209",
    "longitude": "127.015099",
    "category": "즉석떡볶이|떡볶이",
    "review_cnt": 22,
    "review_mean": 3.4545454545454546
  },
  {
    "store_name": "국수바다",
    "tel": "064-739-9255",
    "address": "제주특별자치도 서귀포시 색달동 2130",
    "latitude": "33.258495",
    "longitude": "126.405971",
    "category": "성게국수|국수",
    "review_cnt": 20,
    "review_mean": 3.45
  },
  {
    "store_name": "박용석스시",
    "tel": "02-325-0151",
    "address": "서울특별시 마포구 서교동 465-1",
    "latitude": "37.554739",
    "longitude": "126.916207",
    "category": "스시|연어초밥",
    "review_cnt": 21,
    "review_mean": 3.4285714285714284
  },
  {
    "store_name": "세상의모든아침",
    "tel": "02-2055-4442",
    "address": "서울특별시 영등포구 여의도동 28-1 전경련회관 50층",
    "latitude": "37.522191",
    "longitude": "126.920257",
    "category": "브런치|레스토랑",
    "review_cnt": 20,
    "review_mean": 3.4
  },
  {
    "store_name": "목향원",
    "tel": "031-527-2255",
    "address": "경기도 남양주시 별내동 2335-3",
    "latitude": "37.683505",
    "longitude": "127.101364",
    "category": "석쇠불고기쌈밥|석쇠불고기",
    "review_cnt": 30,
    "review_mean": 3.3666666666666667
  },
  {
    "store_name": "보헤미안 박이추 커피",
    "tel": "033-642-6688",
    "address": "강원도 강릉시 사천면 사천진리 285-11",
    "latitude": "37.846926",
    "longitude": "128.866860",
    "category": "커피|핸드드립",
    "review_cnt": 20,
    "review_mean": 3.35
  },
  {
    "store_name": "다우랑",
    "tel": "063-285-5000",
    "address": "전라북도 전주시 완산구 교동 269-2",
    "latitude": "35.814206",
    "longitude": "127.151002",
    "category": "수제만두|새우만두",
    "review_cnt": 23,
    "review_mean": 3.347826086956522
  },
  {
    "store_name": "오뎅식당",
    "tel": "031-842-0423",
    "address": "경기도 의정부시 의정부동 220-58",
    "latitude": "37.744084",
    "longitude": "127.049432",
    "category": "부대찌게|부대찌개",
    "review_cnt": 24,
    "review_mean": 3.3333333333333335
  },
  {
    "store_name": "유치회관",
    "tel": "031-234-6275",
    "address": "경기도 수원시 팔달구 인계동 1132-4",
    "latitude": "37.258797",
    "longitude": "127.032109",
    "category": "선지해장국|해장국",
    "review_cnt": 34,
    "review_mean": 3.323529411764706
  },
  {
    "store_name": "윤경양식당",
    "tel": "02-6052-3324",
    "address": "서울특별시 성동구 성수동1가 656-442 2층",
    "latitude": "37.546241",
    "longitude": "127.044893",
    "category": "경양식|돈까스",
    "review_cnt": 22,
    "review_mean": 3.272727272727273
  },
  {
    "store_name": "아그라",
    "tel": "02-555-4320",
    "address": "서울특별시 강남구 삼성동 159 코엑스몰 지하1층",
    "latitude": "37.512523",
    "longitude": "127.058821",
    "category": "인도요리|라씨",
    "review_cnt": 21,
    "review_mean": 3.238095238095238
  },
  {
    "store_name": "개미집",
    "tel": "051-744-6446",
    "address": "부산시 해운대구 중1동 142-8",
    "latitude": "35.170334",
    "longitude": "129.169700",
    "category": "낙곱새|낙지볶음",
    "review_cnt": 23,
    "review_mean": 3.217391304347826
  },
  {
    "store_name": "이문설농탕",
    "tel": "02-733-6526",
    "address": "서울특별시 종로구 견지동 88",
    "latitude": "37.572734",
    "longitude": "126.983894",
    "category": "설농탕|설렁탕",
    "review_cnt": 20,
    "review_mean": 3.2
  },
  {
    "store_name": "베테랑",
    "tel": "02-6282-1977",
    "address": "서울시 서초구 반포4동 19-3 센트럴시티터미널 111-1호 호남선게이트 3번앞",
    "latitude": "37.504130",
    "longitude": "127.003069",
    "category": "칼국수|쫄면",
    "review_cnt": 21,
    "review_mean": 3.1904761904761907
  },
  {
    "store_name": "뚝떡",
    "tel": "02-462-0082 ",
    "address": "서울특별시 성동구 성수동1가 668-41",
    "latitude": "37.546908",
    "longitude": "127.043884",
    "category": "떡볶이|만두튀김",
    "review_cnt": 24,
    "review_mean": 3.1666666666666665
  },
  {
    "store_name": "계열사",
    "tel": "02-391-3566",
    "address": "서울특별시 종로구 부암동 258-3",
    "latitude": "37.592887",
    "longitude": "126.965605",
    "category": "후라이드치킨|치킨",
    "review_cnt": 21,
    "review_mean": 3.142857142857143
  },
  {
    "store_name": "신토불이떡볶이",
    "tel": null,
    "address": "서울시 광진구 구의동 52-17",
    "latitude": "37.552505",
    "longitude": "127.090440",
    "category": "떡볶이|야끼만두",
    "review_cnt": 36,
    "review_mean": 3.138888888888889
  },
  {
    "store_name": "부암갈비",
    "tel": "032-425-5538",
    "address": "인천광역시 남동구 간석2동 130-12",
    "latitude": "37.462997",
    "longitude": "126.714305",
    "category": "생갈비",
    "review_cnt": 22,
    "review_mean": 3.1363636363636362
  },
  {
    "store_name": "블루보틀",
    "tel": "02-6212-6998",
    "address": "서울특별시 성동구 성수동1가 656-302",
    "latitude": "37.548086",
    "longitude": "127.045650",
    "category": "카페",
    "review_cnt": 20,
    "review_mean": 3.1
  },
  {
    "store_name": "만석닭강정",
    "tel": "1577-9042",
    "address": "강원도 속초시 중앙동 471-4",
    "latitude": "38.204544",
    "longitude": "128.590180",
    "category": "닭강정",
    "review_cnt": 20,
    "review_mean": 3.1
  },
  {
    "store_name": "사이드쇼",
    "tel": "070-4148-5515",
    "address": "서울특별시 강남구 삼성동 159  코엑스몰 B1 Q124호",
    "latitude": "37.510464",
    "longitude": "127.060276",
    "category": "차돌박이떡볶이|떡볶이",
    "review_cnt": 21,
    "review_mean": 3.0952380952380953
  },
  {
    "store_name": "굴다리식당",
    "tel": "02-712-0066",
    "address": "서울특별시 마포구 도화동 181-45",
    "latitude": "37.542109",
    "longitude": "126.950806",
    "category": "김치찌개|김치찌개전문",
    "review_cnt": 23,
    "review_mean": 3.0869565217391304
  },
  {
    "store_name": "베테랑",
    "tel": "063-285-9898",
    "address": "전라북도 전주시 완산구 교동 85-1",
    "latitude": "35.813434",
    "longitude": "127.151342",
    "category": "칼국수|쫄면",
    "review_cnt": 44,
    "review_mean": 3.022727272727273
  },
  {
    "store_name": "베러댄비프",
    "tel": "02-3446-0400",
    "address": "서울특별시 강남구 신사동 514-9",
    "latitude": "37.517815",
    "longitude": "127.022298",
    "category": "순두부그라탕|삼겹살",
    "review_cnt": 20,
    "review_mean": 3.0
  },
  {
    "store_name": "경양식1920",
    "tel": "02-744-1920",
    "address": "서울특별시 종로구 익선동 166-71",
    "latitude": "37.573531",
    "longitude": "126.989599",
    "category": "경양식|함박스테이크",
    "review_cnt": 23,
    "review_mean": 3.0
  },
  {
    "store_name": "매화반점",
    "tel": "02-462-1939",
    "address": "서울특별시 광진구 자양동 4-11",
    "latitude": "37.538351",
    "longitude": "127.067902",
    "category": "양꼬치|가지튀김",
    "review_cnt": 27,
    "review_mean": 2.888888888888889
  },
  {
    "store_name": "순옥이네명가",
    "tel": "064-712-3434",
    "address": "제주특별자치도 제주시 도두1동 2615-5",
    "latitude": "33.505450",
    "longitude": "126.465112",
    "category": "전복물회|전복뚝배기",
    "review_cnt": 24,
    "review_mean": 2.875
  },
  {
    "store_name": "비루개",
    "tel": "031-841-0006",
    "address": "경기도 남양주시 별내면 용암리 227",
    "latitude": "37.737307",
    "longitude": "127.125303",
    "category": "이색카페|카페",
    "review_cnt": 23,
    "review_mean": 2.869565217391304
  },
  {
    "store_name": "바다식당",
    "tel": "02-795-1317",
    "address": "서울특별시 용산구 한남동 743-7",
    "latitude": "37.537160",
    "longitude": "126.999511",
    "category": "존슨탕|존슨탕부대찌개",
    "review_cnt": 23,
    "review_mean": 2.652173913043478
  },
  {
    "store_name": "쌍둥이 돼지국밥",
    "tel": "051-628-7020",
    "address": "부산광역시 남구 대연1동 889-5",
    "latitude": "35.131775",
    "longitude": "129.092406",
    "category": "돼지국밥|수육백반",
    "review_cnt": 23,
    "review_mean": 2.608695652173913
  },
  {
    "store_name": "교리김밥",
    "tel": "054-772-5130",
    "address": "경상북도 경주시 교동 69",
    "latitude": "35.830881",
    "longitude": "129.216209",
    "category": "계란김밥|김밥",
    "review_cnt": 44,
    "review_mean": 2.340909090909091
  }
]